City_ID,City,Lat,Lng,Max Temp,Humidity,Cloudiness,Wind Speed,Country,Date
0,hawaiian paradise park,19.5933,-154.9731,27.07,71,40,4.63,US,1685840260
1,stanley,54.868,-1.6985,6.61,90,0,1.03,GB,1685840260
2,punta arenas,-53.15,-70.9167,3.95,86,100,2.27,CL,1685840178
3,tual,-5.6667,132.75,27.21,81,88,8.5,ID,1685840260
4,nuku'alofa,-21.1333,-175.2,26.19,65,40,3.6,TO,1685840260
5,kingston,17.997,-76.7936,26.53,89,75,5.14,JM,1685840260
6,akureyri,65.6835,-18.0878,11.96,54,75,6.17,IS,1685840261
7,adamstown,-25.066,-130.1015,23.06,69,100,6.56,PN,1685840261
8,margaret river,-33.95,115.0667,16.97,65,62,9.8,AU,1685839531
9,puerto ayora,-0.7393,-90.3518,25.86,94,29,1.79,EC,1685840261
10,bethel,41.3712,-73.414,14.46,76,40,5.66,US,1685840261
11,nuuk,64.1835,-51.7216,0.49,86,83,10.73,GL,1685840261
12,qaqortoq,60.7167,-46.0333,0.87,89,94,2.62,GL,1685840261
13,longyearbyen,78.2186,15.6401,1.91,69,0,1.54,SJ,1685840261
14,qarqaraly,49.4058,75.4742,18.86,40,0,2.22,KZ,1685840261
15,port-aux-francais,-49.35,70.2167,7.71,92,100,15.0,TF,1685839691
16,san patricio,28.017,-97.5169,29.92,68,0,3.96,US,1685839691
17,igrim,63.1906,64.4162,16.24,97,98,1.04,RU,1685839691
18,kankanhalli,12.55,77.4167,24.02,81,96,3.23,IN,1685840262
19,grytviken,-54.2811,-36.5092,0.16,92,39,3.6,GS,1685840262
20,alajarvi,63.0,23.8167,5.28,98,99,1.38,FI,1685839693
21,edinburgh of the seven seas,-37.0676,-12.3116,14.12,74,100,5.91,SH,1685839914
22,lorengau,-2.0226,147.2712,28.84,74,100,3.64,PG,1685839915
23,okhotsk,59.3833,143.3,12.82,61,20,3.39,RU,1685840262
24,port alfred,-33.5906,26.891,14.52,75,2,7.36,ZA,1685840262
25,ulladulla,-35.35,150.4667,15.98,72,100,3.0,AU,1685840263
26,puerto natales,-51.7236,-72.4875,0.14,94,37,1.7,CL,1685840011
27,hamilton,39.1834,-84.5333,28.43,84,0,0.0,US,1685840263
28,jamestown,42.097,-79.2353,19.77,42,0,5.66,US,1685840088
29,west island,-12.1568,96.8225,26.99,78,100,5.14,CC,1685840263
30,vernon,50.2581,-119.2691,30.97,27,0,1.34,CA,1685840040
31,tromso,69.6496,18.957,6.01,75,100,4.63,NO,1685840263
32,tiksi,71.6872,128.8694,5.33,75,100,1.81,RU,1685840263
33,bredasdorp,-34.5322,20.0403,11.69,74,94,3.01,ZA,1685840263
34,maceio,-9.6658,-35.7353,24.69,94,75,1.03,BR,1685840264
35,elverum,60.8819,11.5623,5.95,84,13,1.54,NO,1685840264
36,hasaki,35.7333,140.8333,25.22,66,100,5.73,JP,1685840264
37,iskateley,67.6803,53.1512,10.18,63,98,7.16,RU,1685840264
38,harper,4.375,-7.7169,25.66,84,100,2.68,LR,1685840264
39,lihue,21.9789,-159.3672,26.52,64,0,4.12,US,1685840264
40,chayan,43.0297,69.3772,20.56,24,0,3.51,KZ,1685840264
41,yellowknife,62.456,-114.3525,23.29,28,100,8.23,CA,1685840264
42,auburn,47.3073,-122.2284,26.19,36,20,2.06,US,1685840096
43,gadzhiyevo,69.2551,33.3362,5.59,63,75,2.15,RU,1685840265
44,mokrous,51.2333,47.5167,16.79,65,8,2.2,RU,1685840265
45,saipan,15.1355,145.701,30.39,100,40,6.71,MP,1685840265
46,les trois-ilets,14.539,-61.0361,27.95,78,75,1.54,MQ,1685840087
47,al qusayr,34.5091,36.5798,17.69,77,17,2.29,SY,1685840265
48,lompoc,34.6391,-120.4579,23.08,81,100,4.92,US,1685840223
49,bilibino,68.0546,166.4372,8.64,75,100,1.62,RU,1685840265
50,college,64.8569,-147.8028,18.38,38,75,5.66,US,1685840265
51,kralendijk,12.15,-68.2667,28.99,74,0,6.69,BQ,1685840265
52,bamboo flat,11.7,92.7167,28.53,77,100,6.85,IN,1685840266
53,new norfolk,-42.7826,147.0587,7.73,70,0,0.82,AU,1685840266
54,la foa,-21.7108,165.8276,24.25,56,18,2.54,NC,1685840266
55,davos,46.8043,9.8372,8.95,87,88,1.44,CH,1685840266
56,waitangi,-43.9535,-176.5597,11.01,72,12,1.34,NZ,1685840266
57,klyuchi,52.2667,79.1667,23.24,45,4,3.95,RU,1685840266
58,bardai,11.65,7.2333,25.54,71,39,2.93,NG,1685840266
59,san antonio de pale,-1.4014,5.6325,25.31,88,69,3.33,GQ,1685840266
60,ust-nera,64.5667,143.2,17.0,38,100,2.09,RU,1685840267
61,karratha,-20.7377,116.8463,21.36,38,0,6.55,AU,1685840267
62,kyelang,32.5833,77.0333,-4.81,68,49,3.04,IN,1685840267
63,blackmans bay,-43.0167,147.3167,7.07,84,0,1.86,AU,1685840267
64,cowra,-33.8333,148.6833,18.21,56,100,6.34,AU,1685840267
65,severo-yeniseyskiy,60.3725,93.0408,16.02,44,11,1.74,RU,1685840267
66,sterling,39.0062,-77.4286,22.76,74,99,4.02,US,1685840267
67,acarau,-2.8856,-40.12,26.11,82,61,5.6,BR,1685840180
68,vanino,49.0869,140.2543,7.05,74,100,2.92,RU,1685840268
69,udachny,66.4167,112.4,6.36,80,100,7.93,RU,1685840268
70,afaahiti,-17.75,-149.2833,26.93,70,24,3.04,PF,1685840268
71,isla mujeres,21.2311,-86.731,28.98,77,0,6.74,MX,1685840268
72,vorgashor,67.5833,63.95,11.49,73,100,4.86,RU,1685840268
73,cumana,10.4635,-64.1775,27.08,84,52,0.94,VE,1685840269
74,iqaluit,63.7506,-68.5145,2.85,93,100,0.0,CA,1685840101
75,albany,42.6001,-73.9662,14.54,82,43,1.81,US,1685840087
76,ribeira grande,38.5167,-28.7,17.65,90,29,1.79,PT,1685840270
77,hlusk,52.903,28.6845,4.08,81,20,1.56,BY,1685840270
78,cromwell,41.5951,-72.6454,13.15,77,100,7.72,US,1685840270
79,sibiti,-3.6819,13.3499,19.74,97,71,1.1,CG,1685840270
80,floro,61.5996,5.0328,8.46,100,17,1.54,NO,1685840270
81,taksimo,56.3444,114.8794,18.29,40,100,1.8,RU,1685840270
82,hermanus,-34.4187,19.2345,9.89,74,34,5.53,ZA,1685840271
83,yatou,37.15,122.3833,26.05,35,60,5.08,CN,1685840271
84,ingeniero jacobacci,-41.3427,-69.5448,2.47,57,0,11.38,AR,1685840271
85,saeby,57.3319,10.5225,8.96,92,22,2.77,DK,1685840271
86,olonkinbyen,70.9221,-8.7187,-0.32,84,100,12.28,SJ,1685840271
87,saint-pierre,-21.3393,55.4781,20.82,64,0,3.09,RE,1685840271
88,madang,-5.2246,145.7966,29.89,67,98,1.07,PG,1685840271
89,st. john's,47.5649,-52.7093,6.55,97,100,8.05,CA,1685840271
90,burang,30.25,81.1667,0.54,71,24,1.3,CN,1685840271
91,port elizabeth,-33.918,25.5701,13.51,72,0,4.12,ZA,1685840146
92,saint-philippe,-21.3585,55.7679,20.77,79,0,4.74,RE,1685840272
93,yeppoon,-23.1333,150.7333,23.88,65,100,5.62,AU,1685840272
94,tazovsky,67.4667,78.7,11.72,70,100,2.42,RU,1685840272
95,sheridan,44.8333,-106.9173,20.81,88,100,0.0,US,1685840272
96,papatowai,-46.5619,169.4708,8.15,81,100,5.41,NZ,1685840272
97,port mathurin,-19.6833,63.4167,24.66,77,18,10.81,MU,1685840115
98,tadine,-21.55,167.8833,23.33,62,80,6.02,NC,1685840272
99,new kingman-butler,35.265,-114.0323,33.79,11,20,5.66,US,1685840089
100,georgetown,5.4112,100.3354,27.96,92,20,1.54,MY,1685840028
101,cabo san lucas,22.8909,-109.9124,28.36,62,1,5.35,MX,1685839990
102,formosa do rio preto,-11.0483,-45.1931,22.36,57,38,1.09,BR,1685840273
103,zboriv,49.6648,25.141,6.37,74,7,3.37,UA,1685840237
104,rahimah,26.7079,50.0619,31.12,40,96,6.66,SA,1685840273
105,lahij,13.1667,44.5833,28.85,63,50,0.93,YE,1685840273
106,bossangoa,6.4926,17.4552,21.36,98,100,1.49,CF,1685840273
107,butajira,8.1167,38.3667,14.89,82,83,1.56,ET,1685840273
108,suklayin,15.7574,121.5503,29.84,68,98,1.92,PH,1685840273
109,port douglas,-16.4833,145.4667,24.33,78,100,5.71,AU,1685840274
110,tobruk,32.0836,23.9764,19.69,83,0,0.35,LY,1685840115
111,kismayo,-0.3582,42.5454,25.84,81,1,5.55,SO,1685840274
112,al jabin,14.704,43.599,17.03,68,18,0.18,YE,1685840274
113,ilulissat,69.2167,-51.1,-1.08,95,100,6.44,GL,1685840274
114,eyl,7.9803,49.8164,27.88,76,100,6.39,SO,1685840274
115,mount pearl,47.5166,-52.7813,6.09,97,100,5.14,CA,1685839990
116,malvan,16.0667,73.4667,29.35,79,16,4.49,IN,1685840274
117,thompson,55.7435,-97.8558,21.09,88,100,2.06,CA,1685840274
118,tongchuanshi,35.0806,109.0897,13.34,93,100,1.63,CN,1685840275
119,mossel bay,-34.1831,22.146,10.96,74,100,4.59,ZA,1685840275
120,vila velha,-20.3297,-40.2925,18.97,94,40,1.03,BR,1685840121
121,leland,34.2563,-78.0447,22.81,87,100,3.58,US,1685840042
122,ushuaia,-54.8,-68.3,2.81,87,0,1.54,AR,1685840275
123,luderitz,-26.6481,15.1594,12.31,85,40,1.63,,1685840275
124,hithadhoo,-0.6,73.0833,28.39,74,100,4.0,MV,1685840275
125,trinidad,-14.8333,-64.9,24.54,79,81,1.41,BO,1685840275
126,krasnyy chikoy,50.3643,108.7512,12.71,73,80,1.73,RU,1685840275
127,hilo,19.7297,-155.09,27.19,71,40,4.63,US,1685840058
128,al kharijah,25.4514,30.5464,31.8,19,100,5.38,EG,1685840276
129,gizo,-8.103,156.8419,28.52,73,90,1.38,SB,1685840276
130,balsas,-7.5325,-46.0356,26.35,52,94,1.94,BR,1685840276
131,puerto baquerizo moreno,-0.9,-89.6,25.79,81,9,4.49,EC,1685840276
132,whitehorse,60.7161,-135.0538,17.79,34,75,6.71,CA,1685840276
133,saint-julien-les-villas,48.2667,4.1,14.98,67,0,0.51,FR,1685840276
134,mansa,29.9833,75.3833,29.39,36,95,1.34,IN,1685840276
135,kargat,55.1956,80.2811,24.84,56,9,0.65,RU,1685840276
136,oppdal,62.5943,9.6912,5.63,79,100,2.48,NO,1685840276
137,leh,34.1667,77.5833,5.33,58,90,1.04,IN,1685840277
138,eastham,41.8301,-69.9739,10.01,83,100,9.39,US,1685840277
139,toamasina,-18.1667,49.3833,19.0,94,20,2.06,MG,1685840277
140,isafjordur,66.0755,-23.124,8.59,94,100,3.92,IS,1685840277
141,chitcani,46.783,29.6168,9.53,63,0,3.68,MD,1685840277
142,talnakh,69.4865,88.3972,7.29,72,100,2.49,RU,1685840277
143,swakopmund,-22.6833,14.5333,11.1,83,3,2.53,,1685840277
144,aasiaat,68.7098,-52.8699,-1.33,78,86,6.93,GL,1685840277
145,alice springs,-23.7,133.8833,14.75,82,100,3.09,AU,1685840278
146,zyrya,40.3661,50.2917,21.05,75,81,4.49,AZ,1685840278
147,payson,40.0444,-111.7321,20.33,50,75,2.06,US,1685840214
148,dalai,45.5,124.3,21.41,39,80,2.54,CN,1685840278
149,utrik,11.2278,169.8474,27.7,76,100,3.81,MH,1685840278
150,panaba,21.2833,-88.2667,26.1,73,0,4.17,MX,1685840278
151,choele choel,-39.2667,-65.6833,12.81,52,0,9.33,AR,1685840278
152,pierre,44.3683,-100.351,31.51,33,0,3.09,US,1685840278
153,atafu village,-8.5421,-172.5159,28.39,74,54,2.87,TK,1685840278
154,nikol'sk,53.7189,46.0712,11.81,97,9,3.47,RU,1685840279
155,san fernando,15.0286,120.6898,29.85,71,100,1.75,PH,1685840279
156,gidam,18.9833,81.4,29.35,29,43,0.46,IN,1685840279
157,la peca,-5.6111,-78.435,20.98,77,17,1.9,PE,1685840279
158,petropavlovsk-kamchatsky,53.0452,158.6483,7.33,71,75,4.0,RU,1685840279
159,lipova,46.0833,21.7,13.39,84,61,1.38,RO,1685840279
160,dakoro,14.5106,6.765,29.34,49,97,6.13,NE,1685840279
161,novyy urgal,51.0736,132.5642,14.87,40,27,0.9,RU,1685840279
162,dudinka,69.4058,86.1778,11.78,64,89,5.3,RU,1685840279
163,williams lake,52.1415,-122.1445,27.81,20,40,6.17,CA,1685840115
164,touros,-5.1989,-35.4608,25.41,78,1,5.62,BR,1685839996
165,cariamanga,-4.3333,-79.55,14.01,91,19,0.96,EC,1685840280
166,mukalla,14.5425,49.1242,28.5,83,43,1.24,YE,1685840280
167,ayorou,14.7308,0.9174,34.18,39,100,6.31,NE,1685840280
168,las lomitas,-24.7096,-60.593,22.85,71,15,3.6,AR,1685840280
169,trairi,-3.2778,-39.2689,25.94,82,57,3.85,BR,1685840280
170,rongelap,11.1635,166.8941,27.43,81,24,4.98,MH,1685840280
171,darovskoy,58.77,47.9564,12.18,97,4,1.59,RU,1685840280
172,al wasitah,29.3378,31.2056,23.07,61,7,4.52,EG,1685840281
173,auki,-8.7676,160.7034,30.16,66,100,1.14,SB,1685840281
174,mccook,40.2019,-100.6257,20.25,88,0,4.12,US,1685840281
175,celestun,20.8667,-90.4,26.95,67,1,4.95,MX,1685840281
176,zabaykal'sk,49.6333,117.3167,18.22,36,5,0.18,RU,1685840281
177,ta`u,-14.2336,-169.5144,27.02,68,100,5.52,AS,1685840281
178,azna,33.6095,48.9307,19.32,36,83,1.94,IR,1685840281
179,gogrial,8.5332,28.1004,26.5,62,78,1.16,SS,1685840282
180,enewetak,11.3474,162.3373,27.57,80,100,5.05,MH,1685840282
181,vadso,70.0744,29.7487,6.49,70,100,1.54,NO,1685840282
182,kristiansund,63.1115,7.732,7.03,87,100,1.03,NO,1685840282
183,wailua homesteads,22.0669,-159.378,26.18,63,0,4.12,US,1685840282
184,kununurra,-15.7667,128.7333,24.99,69,3,1.03,AU,1685840282
185,barra de santo antonio,-9.4047,-35.5072,24.6,82,12,4.54,BR,1685840154
186,howrah,22.5892,88.3103,30.0,89,40,3.09,IN,1685840283
187,hadibu,12.65,54.0333,29.25,76,100,4.78,YE,1685840283
188,queenstown,-31.8976,26.8753,8.45,65,50,4.21,ZA,1685840283
189,pospelikha,51.95,81.7667,21.04,55,36,4.47,RU,1685840283
190,fale old settlement,-9.3852,-171.2468,28.19,76,75,4.01,TK,1685840283
191,al mazar al janubi,31.0656,35.6961,16.13,58,64,3.16,JO,1685840283
192,invercargill,-46.4,168.35,8.51,71,100,4.49,NZ,1685840283
193,zhangjiakou shi xuanhua qu,40.6103,115.0447,21.74,31,65,3.41,CN,1685840283
194,salekhard,66.53,66.6019,13.45,73,100,6.83,RU,1685840284
195,fort bragg,35.139,-79.006,28.32,41,0,2.57,US,1685840284
196,tolbazy,54.0241,55.8825,18.68,85,100,1.78,RU,1685840284
197,solnechnyy,50.7214,136.6319,8.98,62,78,2.47,RU,1685840284
198,carnarvon,-24.8667,113.6333,17.11,40,0,2.52,AU,1685840284
199,nagqu,31.5,92.0,5.06,49,100,2.04,CN,1685840284
200,kodiak,57.79,-152.4072,7.73,76,100,4.63,US,1685840284
201,nova olimpia,-14.7972,-57.2881,25.12,60,32,1.17,BR,1685840285
202,las veredas,23.1388,-109.7075,28.0,68,40,6.17,MX,1685840146
203,taligaman,8.9044,125.6558,28.62,69,100,0.62,PH,1685840285
204,mao,39.8885,4.2658,19.31,88,75,1.54,ES,1685840285
205,saudarkrokur,65.7461,-19.6394,9.82,74,100,5.96,IS,1685840239
206,leava,-14.3,-178.1667,26.95,78,100,7.51,WF,1685840285
207,vilyuchinsk,52.9306,158.4028,8.15,91,100,5.45,RU,1685840285
208,galliano,29.4422,-90.2992,28.0,69,0,1.54,US,1685840286
209,shache,38.4167,77.2406,18.73,44,100,2.01,CN,1685840286
210,constantia,44.1833,28.65,14.38,77,80,7.96,RO,1685840046
211,fomboni,-12.28,43.7425,26.18,73,2,2.91,KM,1685840286
212,chibougamau,49.9168,-74.3659,17.79,29,0,2.57,CA,1685840286
213,port lincoln,-34.7333,135.8667,17.79,69,100,5.95,AU,1685840286
214,floresville,29.1336,-98.1561,31.32,56,49,3.0,US,1685840286
215,taoudenni,22.6783,-3.9836,29.77,18,0,4.71,ML,1685840286
216,chernyshevskiy,63.0128,112.4714,9.02,70,100,4.67,RU,1685840287
217,firuzabad,28.8438,52.5707,24.0,19,78,1.58,IR,1685840287
218,kwang binh,17.4833,106.6,31.06,65,97,1.53,VN,1685840287
219,katima mulilo,-17.5,24.2667,16.15,46,0,2.82,,1685840287
220,kostomuksha,64.571,30.5767,0.57,81,16,1.18,RU,1685840016
221,camborne,50.2131,-5.2973,14.01,76,75,2.06,GB,1685840287
222,catabola,-12.15,17.2833,13.86,56,40,0.7,AO,1685840288
223,kuanda,56.3161,116.0806,18.56,41,8,1.7,RU,1685840288
224,coquimbo,-29.9533,-71.3436,13.85,100,0,1.54,CL,1685840247
225,kuytun,54.3419,101.5036,16.08,83,85,4.67,RU,1685840288
226,misratah,32.3754,15.0925,21.16,76,100,6.66,LY,1685840288
227,richards bay,-28.783,32.0377,21.03,68,0,7.64,ZA,1685840288
228,ciudad general teran,25.2667,-99.6833,26.8,72,27,3.71,MX,1685840288
229,tolanaro,-25.0319,46.9987,22.04,83,0,5.14,MG,1685840288
230,cuamba,-14.8031,36.5372,16.79,75,0,1.63,MZ,1685840288
231,peace river,56.2501,-117.286,27.17,29,0,5.66,CA,1685840289
232,ambovombe,-25.1667,46.0833,19.56,70,10,3.19,MG,1685840289
233,turinsk,58.0458,63.696,19.65,77,95,2.57,RU,1685840289
234,praia da vitoria,38.7333,-27.0667,19.14,88,75,2.21,PT,1685840289
235,bac kan,22.1333,105.8333,25.93,89,100,0.36,VN,1685840289
236,seagoville,32.6396,-96.5383,24.01,70,100,7.72,US,1685840289
237,nemuro,43.3236,145.575,9.17,81,67,4.11,JP,1685840289
238,vasyshcheve,49.8285,36.3269,5.91,87,0,2.93,UA,1685840290
239,haiku-pauwela,20.9219,-156.3051,28.01,54,40,10.29,US,1685840290
240,gangneung,37.7556,128.8961,25.31,32,18,4.3,KR,1685840290
241,ternate,0.8,127.4,29.07,72,67,1.78,ID,1685840290
242,lebu,-37.6167,-73.65,10.75,75,98,1.36,CL,1685840290
243,luwingu,-10.2621,29.9271,13.63,70,18,1.72,ZM,1685840290
244,polyarnyy,69.1989,33.4478,5.76,63,53,2.19,RU,1685840290
245,tchintabaraden,15.8969,5.7985,31.03,44,100,4.9,NE,1685840291
246,ladario,-19.0047,-57.6017,21.74,71,0,1.42,BR,1685840291
247,remire-montjoly,4.9167,-52.2667,25.02,94,75,1.54,GF,1685840291
248,kapuskasing,49.4169,-82.4331,25.0,27,100,2.57,CA,1685840024
249,kimbe,-5.5502,150.1429,31.39,62,73,1.13,PG,1685840292
250,mascote,-15.5631,-39.3025,18.82,99,22,1.21,BR,1685840292
251,porto velho,-8.7619,-63.9039,25.03,94,0,0.0,BR,1685840292
252,stornoway,58.2093,-6.3865,9.49,82,100,2.06,GB,1685840293
253,suva,-18.1416,178.4415,26.71,69,75,5.14,FJ,1685840293
254,horta,38.5333,-28.6333,17.23,90,30,1.79,PT,1685840293
255,tempio pausania,40.8974,9.1035,15.51,91,100,0.68,IT,1685840293
256,cooma,-36.2333,149.1333,9.45,81,100,2.15,AU,1685840293
257,nadi,-17.8,177.4167,28.0,65,75,3.09,FJ,1685840293
258,ussuriysk,43.7986,131.9508,15.9,68,93,2.02,RU,1685840293
259,gebeit,21.0667,36.3167,29.57,35,5,2.13,SD,1685840294
260,east london,-33.0153,27.9116,16.4,65,90,6.47,ZA,1685840294
261,poxoreo,-15.8372,-54.3892,21.48,59,0,1.33,BR,1685840294
262,artashat,39.9614,44.5445,17.12,60,84,1.47,AM,1685840294
263,badger,64.8,-147.5333,18.33,39,40,5.66,US,1685840294
264,camana,-16.6228,-72.7111,18.01,84,54,3.2,PE,1685840294
265,larroque,-33.036,-59.0013,19.19,90,63,3.29,AR,1685840294
266,mugia,43.1041,-9.2179,16.76,90,89,1.67,ES,1685840294
267,uturoa,-16.7333,-151.4333,26.13,65,43,4.42,PF,1685840295
268,bihac,44.8169,15.8708,13.32,97,41,0.41,BA,1685840295
269,mersa matruh,31.3525,27.2453,18.11,88,0,1.54,EG,1685840056
270,thunder bay,48.4001,-89.3168,24.99,50,75,4.63,CA,1685840285
271,tura,25.5198,90.2201,27.48,58,0,2.75,IN,1685840295
272,sabang,5.8933,95.3214,28.44,73,96,7.07,ID,1685840295
273,burgersdorp,-30.9977,26.3286,6.45,67,80,3.6,ZA,1685840295
274,hotan,37.0997,79.9269,18.53,43,100,0.46,CN,1685840295
275,igarka,67.4667,86.5833,12.62,51,79,3.78,RU,1685840296
276,gordonvale,-17.0936,145.7842,27.72,88,78,3.25,AU,1685840296
277,grand falls-windsor,48.9332,-55.6649,1.39,93,100,1.79,CA,1685840296
278,fisterra,42.9049,-9.2629,16.68,89,77,1.33,ES,1685840296
279,nikolayevsk-on-amure,53.1406,140.73,4.63,91,100,1.04,RU,1685840296
280,thisted,56.9552,8.6949,9.52,93,3,5.05,DK,1685840296
281,san luis de la loma,17.2706,-100.8939,28.28,67,0,4.64,MX,1685840296
282,susuman,62.7833,148.1667,17.93,34,69,5.33,RU,1685840296
283,el calafate,-50.3408,-72.2768,2.51,76,100,2.57,AR,1685840297
284,sandakan,5.8402,118.1179,26.82,89,20,1.54,MY,1685840297
285,cadale,2.7603,46.3222,27.43,78,100,7.5,SO,1685840297
286,fecamp,49.7579,0.3746,12.84,90,5,6.12,FR,1685840297
287,codrington,-38.2667,141.9667,14.33,75,85,6.01,AU,1685840297
288,iwon-up,40.3231,128.6553,23.78,39,3,3.72,KP,1685840297
289,tarnogskiy gorodok,60.4997,43.5761,5.97,90,100,2.05,RU,1685840298
290,hasilpur,29.7122,72.5553,30.3,43,14,0.73,PK,1685840298
291,santa ana de yacuma,-13.75,-65.4333,25.5,73,85,1.67,BO,1685840298
292,quellon,-43.1167,-73.6167,7.0,76,31,2.58,CL,1685840298
293,kayangel,8.0823,134.7173,28.49,77,100,5.05,PW,1685840298
294,portland,45.5234,-122.6762,27.56,36,20,3.6,US,1685840220
295,saint-francois,46.4154,3.9054,14.69,94,0,1.54,FR,1685840298
296,caucete,-31.6518,-68.2811,16.11,61,63,1.79,AR,1685840299
297,sullivan,36.5168,-82.5332,24.66,66,75,2.57,US,1685840299
298,wynyard,-41.0,145.7167,13.32,56,66,4.99,AU,1685840031
299,noosa heads,-26.3833,153.15,20.62,82,79,5.66,AU,1685840299
300,sisimiut,66.9395,-53.6735,-0.01,92,100,3.71,GL,1685840299
301,fortuna,40.5982,-124.1573,16.19,77,100,6.17,US,1685840299
302,laguna,38.421,-121.4238,34.62,29,0,4.63,US,1685840299
303,crystal city,28.6775,-99.8281,29.06,54,75,5.67,US,1685840299
304,lautoka,-17.6167,177.4667,27.92,65,75,3.09,FJ,1685840299
305,luba,3.4568,8.5547,23.94,84,100,1.86,GQ,1685840300
306,kyren,51.6828,102.1408,16.77,61,95,2.04,RU,1685840300
307,anlu,31.1661,112.5831,21.42,66,92,5.13,CN,1685840300
308,karachayevsk,43.774,41.9142,13.23,88,100,2.87,RU,1685840300
309,farasan,16.7022,42.1183,30.63,77,20,2.85,SA,1685840300
310,mykolaiv,49.5237,23.9852,6.09,81,6,2.62,UA,1685840300
311,kudahuvadhoo,2.6708,72.8944,25.82,84,100,3.41,MV,1685840300
312,foster city,37.5586,-122.2711,30.75,63,75,9.77,US,1685840300
313,padang,-0.9492,100.3543,25.03,87,98,0.81,ID,1685840301
314,murun-kuren,49.6342,100.1625,14.89,52,13,1.88,MN,1685840301
315,whitecourt,54.1502,-115.6855,24.58,43,40,5.66,CA,1685840301
316,kirakira,-10.4544,161.9205,29.43,72,88,3.21,SB,1685840301
317,colonia,50.9333,6.95,13.4,58,0,1.54,DE,1685840117
318,nar'yan-mar,67.6713,53.087,10.17,64,99,7.13,RU,1685840301
319,sona,45.4388,10.8255,19.03,88,75,0.51,IT,1685840301
320,inyati,-19.6756,28.8469,14.09,51,3,0.95,ZW,1685840301
321,roma,43.2128,-75.4557,19.08,38,0,5.14,US,1685840083
322,kadom,54.5592,42.4675,5.44,89,100,5.51,RU,1685840302
323,aleksandrovsk-sakhalinskiy,50.8975,142.1561,5.62,84,100,2.8,RU,1685840302
324,crane,31.3974,-102.3501,27.56,46,8,7.69,US,1685840302
325,selkirk,50.1436,-96.8845,27.32,62,100,2.24,CA,1685840202
326,puerto carreno,6.189,-67.4859,26.26,77,96,2.57,CO,1685840302
327,nova vicosa,-17.8919,-39.3719,22.48,68,2,4.09,BR,1685840302
328,olyokminsk,60.3736,120.4264,20.21,41,38,3.86,RU,1685840303
329,revda,56.801,59.9303,17.36,91,42,1.27,RU,1685840303
330,chadan,51.2833,91.5833,18.35,35,99,1.75,RU,1685840303
331,praia,14.9215,-23.5087,23.3,73,40,5.66,CV,1685840303
332,socorro,31.6546,-106.3033,33.56,10,20,3.6,US,1685840019
333,daru,-9.0763,143.2092,26.28,89,98,6.53,PG,1685840303
334,maasin,10.1336,124.8447,28.87,87,95,1.47,PH,1685840303
335,masterton,-40.9597,175.6575,12.16,78,100,3.55,NZ,1685840303
336,nsanje,-16.92,35.262,18.92,70,0,0.7,MW,1685840304
337,mil'kovo,55.6078,37.7956,5.73,86,4,3.07,RU,1685840304
338,kidal,18.4411,1.4078,32.25,15,4,4.14,ML,1685840304
339,weno,7.4515,151.8468,28.41,78,28,2.73,FM,1685840304
340,novoagansk,61.9449,76.6625,19.1,79,100,4.65,RU,1685840304
341,tsiombe,-25.3,45.4833,18.99,61,0,2.33,MG,1685840304
342,slave lake,55.2834,-114.769,24.99,36,0,4.12,CA,1685840213
343,puerto armuelles,8.2833,-82.8667,28.99,67,100,2.24,PA,1685840218
344,bel ombre,-4.6167,55.4167,26.91,83,40,5.66,SC,1685840304
345,pedernales,18.0384,-71.744,27.39,78,98,0.93,DO,1685840305
346,puerto san jose,13.9256,-90.8244,28.92,78,76,1.85,GT,1685840305
347,n'zeto,-7.2312,12.8666,22.57,92,100,3.17,AO,1685840305
348,turbat,26.0023,63.044,30.18,47,0,1.77,PK,1685840305
349,sur,22.5667,59.5289,31.16,54,0,5.94,OM,1685840305
350,fort-shevchenko,44.5086,50.263,23.99,52,99,5.92,KZ,1685840305
351,barah,13.7,30.3667,29.83,43,64,3.7,SD,1685840305
352,paracuru,-3.41,-39.0306,28.39,81,16,4.79,BR,1685840305
353,anna regina,7.2644,-58.5077,26.41,84,61,3.05,GY,1685840306
354,turpan,42.9333,89.1667,29.7,13,91,3.09,CN,1685840306
355,dunedin,-45.8742,170.5036,7.2,91,100,5.24,NZ,1685840091
356,dubbo,-32.25,148.6167,20.07,56,100,9.77,AU,1685840306
357,kailua-kona,19.6406,-155.9956,27.98,75,40,5.14,US,1685840306
358,as sulayyil,20.4607,45.5779,27.14,19,4,1.98,SA,1685840306
359,undurkhaan,47.3194,110.6556,13.92,39,5,6.62,MN,1685840306
360,cambebba,-3.6209,-38.8291,28.28,73,12,3.75,BR,1685840306
361,xuddur,4.1213,43.8894,21.85,87,1,6.55,SO,1685840307
362,adamovka,51.5223,59.9396,21.94,50,100,1.35,RU,1685840307
363,broome,42.2506,-75.833,18.43,64,49,1.34,US,1685840307
364,cali,3.4372,-76.5225,26.0,65,40,3.6,CO,1685840010
365,bolgar,54.95,49.0667,14.27,82,5,3.01,RU,1685840307
366,cabedelo,-6.9811,-34.8339,25.37,77,66,5.36,BR,1685840307
367,iquique,-20.2208,-70.1431,19.02,79,58,1.13,CL,1685840307
368,north platte,41.1239,-100.7654,17.43,96,100,3.6,US,1685840307
369,port macquarie,-31.4333,152.9167,20.5,81,100,5.1,AU,1685840308
370,tottori,35.5,134.2333,22.04,53,0,1.54,JP,1685840260
371,tofol,5.3248,163.0078,31.88,70,75,3.6,FM,1685840308
372,keflavik,64.0049,-22.5624,9.24,87,100,6.69,IS,1685840308
373,tondano,1.3038,124.9112,27.05,66,74,1.86,ID,1685840308
374,bodo,67.28,14.405,6.64,92,75,7.2,NO,1685840308
375,yuzhno-kurilsk,44.0306,145.8556,10.35,68,100,1.8,RU,1685840308
376,mulayjah,27.271,48.4242,31.85,20,19,5.58,SA,1685840309
377,truckee,39.328,-120.1833,25.05,30,40,3.6,US,1685840182
378,arendal,58.4615,8.7725,7.89,80,9,1.55,NO,1685840309
379,chonchi,-42.6128,-73.8092,5.07,85,18,1.14,CL,1685840309
380,barcelos,41.5388,-8.6151,18.25,94,95,1.38,PT,1685840309
381,sena madureira,-9.0656,-68.6569,22.64,96,18,0.43,BR,1685840309
382,guerrero negro,27.9769,-114.0611,17.65,69,0,9.22,MX,1685840309
383,holualoa,19.6228,-155.9522,25.91,76,40,5.14,US,1685840310
384,avarua,-21.2078,-159.775,25.03,61,75,2.06,CK,1685840310
385,lamar,33.6668,-95.5836,19.8,88,100,6.69,US,1685840310
386,sarangani,5.4033,125.4636,28.57,77,100,4.11,PH,1685840310
387,antofagasta,-23.65,-70.4,16.6,84,97,2.42,CL,1685840310
388,holdrege,40.4403,-99.3698,19.95,83,75,4.63,US,1685840310
389,labrador city,52.9463,-66.9114,13.95,30,0,1.54,CA,1685840310
390,broken hill,-31.95,141.4333,20.31,41,100,7.47,AU,1685840311
391,egilsstadir,65.2653,-14.3948,9.95,71,0,0.51,IS,1685840311
392,scarborough,54.2797,-0.4044,10.37,90,100,2.2,GB,1685840231
393,punta del este,-34.9667,-54.95,17.06,91,75,2.06,UY,1685840311
394,skovorodino,53.9833,123.9167,21.88,29,17,2.97,RU,1685840311
395,santa terezinha,-29.9002,-50.0904,18.4,71,0,2.47,BR,1685840311
396,al burayqah,30.4062,19.5739,23.15,56,13,6.77,LY,1685840311
397,ardakan,32.31,54.0175,26.95,25,24,2.19,IR,1685840311
398,kalaoa,19.7286,-155.9817,26.52,76,40,5.14,US,1685840300
399,happy valley-goose bay,53.3168,-60.3315,10.17,46,75,3.09,CA,1685840312
400,ofunato,39.0717,141.7167,20.88,53,37,7.75,JP,1685840312
401,guanica,17.9716,-66.908,28.88,71,64,4.04,PR,1685840312
402,barclayville,4.6797,-8.2339,25.04,88,100,1.41,LR,1685840312
403,westport,41.1415,-73.3579,14.96,73,100,7.72,US,1685840118
404,bukama,-9.2,25.85,19.77,56,75,1.06,CD,1685840312
405,dame-marie,18.5667,-74.4167,26.32,83,48,2.79,HT,1685840312
406,newman,37.3138,-121.0208,34.45,23,2,2.24,US,1685840313
407,kavaratti,10.5669,72.642,29.03,74,100,3.9,IN,1685840313
408,portoviejo,-1.05,-80.45,27.57,89,100,2.79,EC,1685840313
409,alofi,-19.0595,-169.9187,24.94,83,100,3.6,NU,1685840313
410,mossendjo,-2.9506,12.7261,19.58,97,72,1.02,CG,1685840314
411,ostersund,63.1792,14.6357,5.34,41,75,9.26,SE,1685840314
412,rosetta,31.4044,30.4164,20.02,80,9,2.81,EG,1685840315
413,north battleford,52.7834,-108.2847,23.05,73,75,4.63,CA,1685840315
414,huarmey,-10.0681,-78.1522,22.08,79,22,5.11,PE,1685840315
415,at taj,24.2049,23.2857,30.67,25,14,3.82,LY,1685840315
416,jezowe,50.3749,22.1275,6.81,78,74,2.98,PL,1685840315
417,bhisho,-32.8472,27.4422,10.61,83,74,1.69,ZA,1685840315
418,geraldton,-28.7667,114.6,12.23,62,93,7.72,AU,1685840315
419,flin flon,54.7682,-101.865,19.35,87,100,3.99,CA,1685840315
420,arraial do cabo,-22.9661,-42.0278,21.45,73,0,5.47,BR,1685840316
421,nyurba,63.2842,118.3319,12.97,82,99,2.6,RU,1685840316
422,menaka,15.9182,2.4022,33.77,37,100,6.09,ML,1685840316
423,anzio,41.4853,12.6179,20.48,79,33,0.74,IT,1685840316
424,ugoofaaru,5.6667,73.0,28.45,77,100,6.19,MV,1685840316
425,xilin hot,43.9667,116.0333,18.63,29,98,8.24,CN,1685840316
426,lamarque,-39.423,-65.7021,12.89,45,0,10.29,AR,1685840316
427,isla del bosque,22.7333,-105.85,26.44,75,8,3.76,MX,1685840317
428,can,40.0333,27.0524,15.52,94,100,1.52,TR,1685840119
429,plainview,40.7765,-73.4673,16.09,73,100,3.6,US,1685840317
430,whangarei,-35.7317,174.3239,16.33,58,68,2.81,NZ,1685840317
431,tralee,52.2704,-9.7026,12.2,92,0,1.44,IE,1685840317
432,belmonte,-15.8631,-38.8828,22.76,83,14,4.86,BR,1685840286
433,woodward,36.4337,-99.3904,27.57,67,0,3.6,US,1685840317
434,olonets,60.9847,32.9698,3.38,92,59,1.97,RU,1685840317
435,kapa'a,22.0752,-159.319,26.93,62,0,4.12,US,1685840317
436,pisco,-13.7,-76.2167,21.03,78,9,5.66,PE,1685840062
437,fayroz koh,34.5195,65.2509,11.8,34,2,0.69,AF,1685840318
438,sihanoukville,10.6093,103.5296,25.97,94,75,1.54,KH,1685840058
439,pasuquin,18.3328,120.6177,28.97,84,20,1.54,PH,1685840318
440,teknaf,20.8624,92.3058,28.13,83,15,0.27,BD,1685840318
441,zouerate,22.7187,-12.4521,26.58,33,0,4.25,MR,1685840318
442,saint-joseph,-21.3667,55.6167,20.21,77,0,4.95,RE,1685840318
443,magadan,59.5667,150.8,21.41,63,98,0.71,RU,1685840109
444,tamandare,-8.7597,-35.1047,25.52,79,2,3.73,BR,1685840318
445,san ignacio,17.1561,-89.0714,33.08,49,0,3.09,BZ,1685840319
446,manadhoo,5.7667,73.3833,28.54,77,100,6.1,MV,1685840319
447,gori,41.9842,44.1158,14.4,86,35,0.35,GE,1685840319
448,garden city,42.3256,-83.331,25.14,45,75,4.63,US,1685840319
449,nizhniye sergi,56.6614,59.3033,16.64,96,41,1.66,RU,1685840319
450,savanna-la-mar,18.219,-78.1332,28.85,89,6,2.07,JM,1685840319
451,yaren,-0.5472,166.916,29.16,76,18,5.01,NR,1685840319
452,mitsamiouli,-11.3847,43.2844,25.71,72,15,1.68,KM,1685840320
453,karungdong,5.8844,121.263,29.53,68,96,1.06,PH,1685840320
454,san pedro,14.35,121.0167,30.57,74,40,1.03,PH,1685840320
455,moanda,-1.5575,13.2178,22.75,94,77,1.14,GA,1685840320
456,zag,46.9441,99.165,12.07,38,3,2.1,MN,1685840320
457,toliara,-23.35,43.6667,21.19,51,0,2.83,MG,1685840320
458,saint-leu,-21.15,55.2833,22.46,82,0,1.38,RE,1685840320
459,lyantonde,-0.4031,31.1572,17.04,91,45,1.19,UG,1685840320
460,yeniseysk,58.4497,92.1703,19.52,47,5,1.98,RU,1685840321
461,carutapera,-1.195,-46.02,24.2,95,100,2.95,BR,1685840321
462,tokoroa,-38.2333,175.8667,11.08,89,100,2.24,NZ,1685840321
463,bengkulu,-3.8004,102.2655,25.5,89,100,1.06,ID,1685840321
464,flying fish cove,-10.4217,105.6791,25.82,83,100,4.63,CX,1685840321
465,shijiang,27.0819,110.7933,23.68,85,100,1.51,CN,1685840321
466,nkove,-7.95,30.85,22.66,58,24,2.71,TZ,1685840321
467,ciudad bolivar,8.1222,-63.5497,28.02,70,100,1.54,VE,1685840321
468,sanjwal,33.7608,72.4336,25.45,49,22,1.23,PK,1685840321
469,sabha,27.0377,14.4283,30.27,25,1,10.29,LY,1685840322
470,manismata,-2.4667,111.0333,26.94,87,76,1.54,ID,1685840322
471,behshahr,36.6923,53.5526,22.91,70,31,2.55,IR,1685840322
472,saldanha,-33.0117,17.9442,10.03,80,100,2.28,ZA,1685840322
473,nouadhibou,20.931,-17.0347,19.99,94,0,6.69,MR,1685840322
474,alo,7.4178,6.7371,24.89,89,98,1.18,NG,1685840322
475,khorixas,-20.3667,14.9667,12.44,57,0,1.33,,1685840322
476,yamba,-5.9,22.3,24.28,47,99,1.27,CD,1685840322
477,opuwo,-18.0607,13.84,15.22,41,0,2.59,,1685840323
478,margate,51.3813,1.3862,12.39,81,10,3.58,GB,1685840323
479,san juan de miraflores,-12.1629,-76.9635,21.76,79,72,4.11,PE,1685840323
480,el bauga,18.262,33.9081,30.8,32,41,2.89,SD,1685840323
481,tibu,8.639,-72.7358,26.98,78,7,0.61,CO,1685840323
482,la passe,45.5549,-0.8967,19.13,92,16,2.48,FR,1685840323
483,aykhal,66.0,111.5,2.83,90,100,9.11,RU,1685840323
484,preston,53.7667,-2.7167,12.14,89,34,2.36,GB,1685840217
485,orapa,-21.2833,25.3667,18.66,38,2,3.64,BW,1685840324
486,nizhniy kuranakh,58.8353,125.4869,19.17,47,100,3.84,RU,1685840324
487,ketchikan,55.3422,-131.6461,14.26,54,75,4.63,US,1685840324
488,al jahra',29.3375,47.6581,34.19,22,55,7.88,KW,1685840324
489,ivoti,-29.5911,-51.1606,18.82,72,0,1.73,BR,1685840324
490,whitestown,39.9973,-86.3458,30.68,40,0,5.14,US,1685840324
491,manicore,-5.8092,-61.3003,24.39,94,67,0.51,BR,1685840324
492,al ghayzah,16.2079,52.176,27.71,80,0,2.66,YE,1685840324
493,mizque,-17.941,-65.3402,15.37,75,0,1.55,BO,1685840325
494,biloela,-24.4167,150.5,24.58,48,47,6.78,AU,1685840325
495,sitka,57.0531,-135.33,11.94,76,75,3.09,US,1685840325
496,mananjary,-21.2167,48.3333,21.5,87,61,1.32,MG,1685840325
497,beira,-19.8436,34.8389,24.05,94,0,3.35,MZ,1685840325
498,praya,14.9215,-23.5087,23.3,73,40,5.66,CV,1685840325
499,lunca de jos,46.5667,25.9833,4.49,80,29,1.59,RO,1685840325
500,sola,-13.8833,167.55,26.78,81,78,9.62,VU,1685840325
501,buala,-8.145,159.5921,29.9,67,48,1.81,SB,1685840326
502,kerikeri,-35.2268,173.9474,14.58,75,100,2.99,NZ,1685840326
503,mata-utu,-13.2816,-176.1745,27.64,68,99,5.55,WF,1685840326
504,san fernando de apure,7.8878,-67.4724,24.81,92,90,0.54,VE,1685840326
505,progreso,21.2833,-89.6667,28.39,71,5,4.31,MX,1685840326
506,anadyr,64.75,177.4833,5.28,65,0,10.73,RU,1685840326
507,ola,59.5833,151.2833,21.75,57,98,0.96,RU,1685840326
508,glace bay,46.1969,-59.957,6.7,96,100,5.14,CA,1685840326
509,namtsy,62.7161,129.6658,21.38,31,0,4.14,RU,1685840326
510,tommot,58.9564,126.2925,19.54,48,100,3.88,RU,1685840327
511,bonthe,7.5264,-12.505,26.18,84,100,1.15,SL,1685840327
512,tazacorte,28.629,-17.9293,21.54,92,100,0.51,ES,1685840327
513,beaufort-en-vallee,47.4397,-0.2189,17.17,72,0,3.6,FR,1685840327
514,uttaradit,17.6667,100.5,28.48,58,13,0.98,TH,1685840327
515,bagalkot,16.1833,75.7,26.69,69,12,6.63,IN,1685840327
516,chhor,25.5167,69.7667,29.08,74,5,7.89,PK,1685840327
517,bikaner,28.0167,73.3,27.31,57,99,1.18,IN,1685840328
518,bikenibeu village,1.3673,173.1241,31.98,70,75,4.12,KI,1685840328
519,mount gambier,-37.8333,140.7667,15.72,67,11,3.87,AU,1685840328
520,shingu,33.7333,135.9833,24.63,32,1,2.13,JP,1685840328
521,qamdo,31.1667,97.2333,7.74,37,0,2.23,CN,1685840328
522,argo,37.6333,22.7333,18.21,70,3,1.35,GR,1685840328
523,ghat,24.9647,10.1728,31.0,9,0,2.95,LY,1685840328
524,selfoss,63.9331,-20.9971,8.91,86,100,2.95,IS,1685840328
525,mgandu,-5.95,34.1333,14.86,95,88,3.82,TZ,1685840329
526,barakani,-12.1356,44.4317,25.03,78,25,2.61,KM,1685840329
527,shiyan,32.6475,110.7781,16.85,93,100,0.2,CN,1685840329
528,urechesti,45.6,27.0667,11.36,62,71,4.59,RO,1685840329
529,rundu,-17.9333,19.7667,21.32,32,100,0.4,,1685840329
530,lazaro cardenas,17.9583,-102.2,27.49,70,0,4.85,MX,1685840329
531,iba,15.3667,120.0333,27.94,73,100,1.4,PH,1685840329
532,lensk,60.7253,114.9278,17.13,47,2,5.25,RU,1685840329
533,kittila,67.6647,24.8936,4.08,87,0,0.51,FI,1685840330
534,alaghsas,17.0187,8.0168,29.55,30,100,4.45,NE,1685840330
535,zhuangyuan,37.2975,120.8256,27.4,29,97,4.15,CN,1685840330
536,ancud,-41.8697,-73.8203,8.5,75,7,3.3,CL,1685840330
537,rio rancho,35.2334,-106.6645,25.71,27,75,9.26,US,1685840330
538,rikaze,29.25,88.8833,10.09,39,0,1.51,CN,1685840330
539,rusk,31.796,-95.1502,23.66,49,0,3.6,US,1685840293
540,mili,6.0815,171.735,28.21,79,73,4.54,MH,1685840330
541,port-gentil,-0.7193,8.7815,24.87,86,100,4.53,GA,1685840330
542,dukhan,25.4297,50.7858,30.17,53,40,5.29,QA,1685840331
543,vredendal,-31.6683,18.5012,10.55,93,8,1.76,ZA,1685840331
544,nova xavantina,-14.6667,-52.35,22.54,56,0,1.29,BR,1685840331
545,quibor,9.9287,-69.6201,24.54,81,15,2.89,VE,1685840331
546,chifeng,42.2683,118.9636,23.42,16,7,4.0,CN,1685840331
547,lospalos,-8.5186,127.0025,25.05,68,55,3.88,TL,1685840331
548,villa gesell,-37.2639,-56.973,12.25,83,100,2.22,AR,1685840331
549,belaya kholunitsa,58.84,50.8528,13.54,84,100,2.71,RU,1685840331
550,lubang,13.8584,120.124,28.22,77,97,3.74,PH,1685840332
551,ginir,7.1333,40.7,14.49,86,37,1.83,ET,1685840332
552,mazatlan,23.2167,-106.4167,28.98,76,0,5.66,MX,1685840183
553,rybinsk,58.0446,38.8426,2.64,85,2,3.46,RU,1685840147
554,shubarshi,48.5872,57.1869,20.65,61,89,4.21,KZ,1685840332
555,namibe,-15.1961,12.1522,19.43,68,0,4.6,AO,1685840332
556,obihiro,42.9172,143.2044,11.67,87,75,0.51,JP,1685840332
557,gulma,12.6423,4.3555,30.08,58,92,6.29,NG,1685840332
558,northam,51.0333,-4.2167,13.12,86,0,4.07,GB,1685840332
559,kuala terengganu,5.3302,103.1408,25.97,94,40,1.03,MY,1685840333
560,brookings,44.3114,-96.7984,29.0,45,20,4.12,US,1685840188
561,polygyros,40.3744,23.4383,18.85,77,100,1.7,GR,1685840333
562,choyr,46.3611,108.3611,14.66,48,15,7.27,MN,1685840333
563,walvis bay,-22.9575,14.5053,11.16,93,1,2.06,,1685840334
564,foumban,5.7291,10.9001,18.03,95,100,1.61,CM,1685840334
565,fairmount,43.0473,-76.2385,19.04,50,9,2.51,US,1685840334
566,taltal,-25.4,-70.4833,17.2,77,94,1.86,CL,1685840334
567,grove city,39.8815,-83.093,28.03,83,0,3.6,US,1685840060
568,kukshi,22.2,74.75,29.45,67,0,5.63,IN,1685840334
